City,Country,Date,Latitude,Longitude,Humidity,Pressure,Max_Temp,Cloudiness,Wind_Speed
Ushuaia,AR,2020-06-16 17:35:18,-54.8,-68.3,81,1004,37.4,40,2.1
Hare Bay,CA,2020-06-16 17:35:18,48.85,-54.01,35,1021,71.6,75,6.2
Wolfsburg,DE,2020-06-16 17:35:07,52.43,10.8,73,1013,71.01,58,1.5
Klaksvík,FO,2020-06-16 17:35:19,62.23,-6.59,93,1017,51.8,100,5.1
Saint George,US,2020-06-16 17:34:00,37.1,-113.58,18,1011,90.0,1,12.3
Rawlins,US,2020-06-16 17:35:19,41.79,-107.24,14,1015,72.0,1,11.3
Rikitea,PF,2020-06-16 17:35:19,-23.12,-134.97,81,1020,75.45,22,5.74
Saskylakh,RU,2020-06-16 17:35:19,71.92,114.08,56,999,49.3,0,4.68
Port-Cartier,CA,2020-06-16 17:35:19,50.03,-66.87,40,1020,69.8,75,5.1
Albany,US,2020-06-16 17:35:02,42.6,-73.97,34,1026,80.01,0,0.93
Castro,BR,2020-06-16 17:35:20,-24.79,-50.01,64,1023,69.31,49,2.62
Tuktoyaktuk,CA,2020-06-16 17:35:20,69.45,-133.04,54,1012,59.0,75,7.2
Taku,CN,2020-06-16 17:35:20,39.02,117.65,39,1004,78.8,98,4.0
Ekibastuz,KZ,2020-06-16 17:35:20,51.67,75.37,53,1009,60.84,100,7.6
Ixtapa,MX,2020-06-16 17:35:20,20.7,-105.2,62,1013,84.2,5,3.1
Nome,US,2020-06-16 17:34:20,64.5,-165.41,71,1008,59.0,1,0.29
Port Elizabeth,ZA,2020-06-16 17:35:21,-33.92,25.57,82,1033,60.8,0,4.1
Waddān,LY,2020-06-16 17:35:21,29.16,16.14,22,1016,82.2,0,6.59
Hilo,US,2020-06-16 17:33:54,19.73,-155.09,88,1020,72.0,90,2.1
Matara,LK,2020-06-16 17:35:21,5.95,80.54,91,1009,80.08,97,3.42
Mataura,NZ,2020-06-16 17:35:21,-46.19,168.86,81,1013,47.57,94,2.38
Bonthe,SL,2020-06-16 17:35:21,7.53,-12.51,82,1012,81.21,95,3.3
Punta Arenas,CL,2020-06-16 17:33:28,-53.15,-70.92,86,1004,39.2,16,5.7
Puerto Ayora,EC,2020-06-16 17:35:22,-0.74,-90.35,61,1014,78.8,40,8.2
São Lourenço do Sul,BR,2020-06-16 17:35:22,-31.37,-51.98,64,1020,75.2,1,4.1
Bluff,NZ,2020-06-16 17:35:22,-46.6,168.33,72,1011,54.75,79,7.4
Colares,PT,2020-06-16 17:35:22,38.8,-9.45,60,1022,73.99,20,6.7
Ribeira Grande,PT,2020-06-16 17:35:22,38.52,-28.7,53,1023,71.6,20,7.2
Buchach,UA,2020-06-16 17:35:22,49.06,25.39,84,974,66.99,65,2.68
Novo Mesto,SI,2020-06-16 17:35:23,45.8,15.17,68,1011,69.8,75,0.5
Talnakh,RU,2020-06-16 17:35:23,69.49,88.4,86,997,41.0,75,4.0
Ibarra,EC,2020-06-16 17:31:31,0.35,-78.12,37,1026,71.6,75,3.1
Jamestown,US,2020-06-16 17:33:51,42.1,-79.24,43,1029,73.0,1,2.1
Yinchuan,CN,2020-06-16 17:30:35,38.47,106.27,85,830,59.0,100,2.68
George Town,MY,2020-06-16 17:35:24,5.41,100.34,94,1010,82.4,20,1.06
Presidencia Roque Sáenz Peña,AR,2020-06-16 17:35:24,-26.79,-60.44,42,1008,88.0,78,3.58
Nikolskoye,RU,2020-06-16 17:35:24,59.7,30.79,77,1015,75.99,20,2.0
Grindavik,IS,2020-06-16 17:35:24,63.84,-22.43,66,1018,50.0,75,4.1
Vardø,NO,2020-06-16 17:35:24,70.37,31.11,70,1021,46.4,40,8.2
Half Moon Bay,US,2020-06-16 17:25:42,37.46,-122.43,77,1018,66.99,1,8.2
Sompeta,IN,2020-06-16 17:35:25,18.93,84.6,82,1002,83.95,93,4.53
Mahébourg,MU,2020-06-16 17:35:25,-20.41,57.7,78,1021,71.6,40,5.1
Tiksi,RU,2020-06-16 17:35:25,71.69,128.87,65,1003,48.97,24,3.27
Lagoa,PT,2020-06-16 17:26:15,39.05,-27.98,80,1024,64.98,0,5.08
Rock Falls,US,2020-06-16 17:33:10,41.78,-89.69,41,1026,80.01,1,3.1
Puerto Madryn,AR,2020-06-16 17:35:25,-42.77,-65.04,35,1009,60.93,33,5.83
Kununurra,AU,2020-06-16 17:35:26,-15.77,128.73,28,1016,77.0,0,4.6
Hamilton,US,2020-06-16 17:32:22,39.18,-84.53,47,1027,81.0,40,5.7
Vostok,RU,2020-06-16 17:35:26,46.49,135.88,100,1004,44.85,93,1.69
Torbay,CA,2020-06-16 17:35:14,47.67,-52.73,40,1023,69.01,20,7.7
Caazapá,PY,2020-06-16 17:35:26,-26.15,-56.4,65,1016,78.37,27,4.43
Port Alfred,ZA,2020-06-16 17:35:26,-33.59,26.89,86,1033,57.0,25,1.79
Kapaa,US,2020-06-16 17:35:27,22.08,-159.32,94,1021,73.4,90,8.2
Mildura,AU,2020-06-16 17:30:51,-34.2,142.15,100,1030,46.4,90,3.1
New Norfolk,AU,2020-06-16 17:35:27,-42.78,147.06,77,1023,39.99,7,1.34
Hermanus,ZA,2020-06-16 17:35:27,-34.42,19.23,75,1030,57.99,0,3.09
Qaanaaq,GL,2020-06-16 17:35:27,77.48,-69.36,72,1009,40.15,65,0.83
Severo-Kuril'sk,RU,2020-06-16 17:35:27,50.68,156.12,90,1015,41.45,91,5.2
Vila Velha,BR,2020-06-16 17:35:28,-20.33,-40.29,78,1024,75.2,75,5.7
Castelo do Piauí,BR,2020-06-16 17:35:28,-5.32,-41.55,48,1012,88.7,30,3.44
Butaritari,KI,2020-06-16 17:35:28,3.07,172.79,80,1008,82.96,28,6.52
Leh,IN,2020-06-16 17:35:28,34.17,77.58,35,1016,56.19,2,2.06
Port Blair,IN,2020-06-16 17:24:14,11.67,92.75,81,1009,83.34,100,7.04
Yumen,CN,2020-06-16 17:35:28,40.28,97.2,24,1008,69.51,0,2.39
Asău,RO,2020-06-16 17:35:29,46.43,26.4,93,1009,66.2,40,1.0
Cooma,AU,2020-06-16 17:30:31,-36.23,149.13,100,1027,30.2,90,1.5
Killybegs,IE,2020-06-16 17:35:29,54.63,-8.45,86,1016,57.2,90,4.6
Cabo San Lucas,MX,2020-06-16 17:34:09,22.89,-109.91,45,1014,89.01,20,3.1
Mount Gambier,AU,2020-06-16 17:30:38,-37.83,140.77,100,1029,42.8,40,2.1
Cape Town,ZA,2020-06-16 17:31:06,-33.93,18.42,71,1029,57.2,0,1.0
Hofn,IS,2020-06-16 17:35:29,64.25,-15.21,68,1016,50.97,68,2.24
Arraial do Cabo,BR,2020-06-16 17:35:30,-22.97,-42.03,64,1026,75.2,40,3.6
Pāsighāt,IN,2020-06-16 17:25:32,28.07,95.33,86,1007,77.38,100,1.47
Turukhansk,RU,2020-06-16 17:35:30,65.82,87.98,89,1002,43.72,69,2.95
Otavi,NA,2020-06-16 17:35:30,-19.65,17.33,33,1021,60.08,0,5.19
Tasiilaq,GL,2020-06-16 17:35:30,65.61,-37.64,86,1013,37.4,75,8.2
Biltine,TD,2020-06-16 17:35:31,14.53,20.92,27,1006,91.44,64,3.94
Los Llanos de Aridane,ES,2020-06-16 17:35:31,28.66,-17.92,88,1023,75.2,75,1.5
Bhandāra,IN,2020-06-16 17:35:31,21.17,79.65,83,1002,78.8,75,3.6
Atuona,PF,2020-06-16 17:35:31,-9.8,-139.03,76,1014,80.64,2,9.16
Krasnyy Chikoy,RU,2020-06-16 17:35:31,50.36,108.75,89,1007,57.54,100,1.27
Zaritap,AM,2020-06-16 17:35:31,39.64,45.51,31,1008,78.8,75,3.1
Avanigadda,IN,2020-06-16 17:35:32,16.02,80.92,66,1003,86.77,99,4.77
East London,ZA,2020-06-16 17:35:32,-33.02,27.91,66,1035,62.56,19,4.45
Mar del Plata,AR,2020-06-16 17:35:32,-38.0,-57.56,93,1015,62.01,90,3.1
Sobolevo,RU,2020-06-16 17:35:32,54.43,31.9,88,1015,70.99,14,2.93
Husavik,IS,2020-06-16 17:35:32,66.04,-17.34,47,1015,57.2,75,5.7
Ayagoz,KZ,2020-06-16 17:35:32,47.97,80.44,65,1003,62.71,72,2.71
Lebu,CL,2020-06-16 17:35:33,-37.62,-73.65,88,1009,53.53,100,7.05
Lorengau,PG,2020-06-16 17:35:33,-2.02,147.27,74,1008,82.22,62,3.04
Fiumicino,IT,2020-06-16 17:35:33,41.77,12.23,64,1011,75.0,3,6.2
Saryagash,KZ,2020-06-16 17:35:33,41.45,69.17,23,1009,77.0,19,5.1
Yellowknife,CA,2020-06-16 17:35:33,62.46,-114.35,58,1015,59.0,40,12.3
Itoman,JP,2020-06-16 17:25:57,26.12,127.67,94,1008,82.4,40,5.1
Hobart,AU,2020-06-16 17:33:00,-42.88,147.33,52,1024,44.6,5,7.7
Chokurdakh,RU,2020-06-16 17:35:34,70.63,147.92,37,1004,73.89,20,2.82
Faridabad,IN,2020-06-16 17:35:34,28.43,77.32,44,997,95.0,40,3.1
Busselton,AU,2020-06-16 17:35:35,-33.65,115.33,61,1006,55.99,91,7.69
Ta Khmau,KH,2020-06-16 17:35:35,11.48,104.95,88,1009,82.4,40,0.5
Vanavara,RU,2020-06-16 17:35:35,60.34,102.28,89,1011,44.58,72,1.13
Pisco,PE,2020-06-16 17:35:35,-13.7,-76.22,88,1017,64.99,75,2.1
Khatanga,RU,2020-06-16 17:35:35,71.97,102.5,64,993,50.59,100,5.77
Umm Kaddadah,SD,2020-06-16 17:35:36,13.6,26.69,12,1007,98.49,60,2.76
Sfântu Gheorghe,RO,2020-06-16 17:21:50,45.87,25.78,67,973,73.0,61,0.45
Dingle,PH,2020-06-16 17:35:36,11.0,122.67,78,1009,77.63,90,1.88
Port Lincoln,AU,2020-06-16 17:35:36,-34.73,135.87,74,1030,54.18,66,1.44
Cherskiy,RU,2020-06-16 17:35:37,68.75,161.3,45,1007,68.27,51,2.31
Faanui,PF,2020-06-16 17:35:37,-16.48,-151.75,82,1013,79.52,66,5.22
Bethel,US,2020-06-16 17:35:37,41.37,-73.41,43,1029,77.0,1,3.1
Bambous Virieux,MU,2020-06-16 17:35:37,-20.34,57.76,78,1021,71.6,40,5.1
Thompson,CA,2020-06-16 17:35:38,55.74,-97.86,40,1009,73.4,75,5.7
Kuala Lipis,MY,2020-06-16 17:35:38,4.18,102.05,95,1010,74.21,99,0.39
Cap-aux-Meules,CA,2020-06-16 17:35:38,47.38,-61.86,46,1026,69.8,75,5.1
Usinsk,RU,2020-06-16 17:35:38,65.99,57.53,61,1011,43.75,83,5.3
Umluj,SA,2020-06-16 17:35:38,25.02,37.27,62,1006,81.68,0,2.73
Bredasdorp,ZA,2020-06-16 17:35:38,-34.53,20.04,93,1030,57.2,0,1.57
Aksha,RU,2020-06-16 17:35:39,50.28,113.29,84,1002,56.88,94,1.43
Sawtell,AU,2020-06-16 17:35:39,-30.38,153.1,93,1026,51.8,1,3.1
Hong Kong,HK,2020-06-16 17:31:42,22.29,114.16,74,1012,82.0,0,4.02
Tandil,AR,2020-06-16 17:26:22,-37.32,-59.13,83,999,57.99,100,0.45
Kaitangata,NZ,2020-06-16 17:35:39,-46.28,169.85,85,1013,48.27,100,1.98
Nuuk,GL,2020-06-16 17:35:40,64.18,-51.72,86,1010,37.4,75,8.7
Djenné,ML,2020-06-16 17:35:40,13.91,-4.55,18,1006,106.02,11,2.91
Vaini,TO,2020-06-16 17:35:40,-21.2,-175.2,68,1021,71.6,75,4.1
Longyearbyen,SJ,2020-06-16 17:34:28,78.22,15.64,60,1015,41.0,20,4.1
Geraldton,AU,2020-06-16 17:35:40,-28.77,114.6,34,1016,53.6,0,7.7
Barrow,US,2020-06-16 17:35:40,71.29,-156.79,74,1015,37.4,40,6.7
Te Anau,NZ,2020-06-16 17:35:41,-45.42,167.72,82,1014,50.5,62,2.97
Guerrero Negro,MX,2020-06-16 17:35:41,27.98,-114.06,61,1014,70.57,54,6.27
Broome,US,2020-06-16 17:35:41,42.25,-75.83,40,1030,77.0,1,1.72
Avarua,CK,2020-06-16 17:35:41,-21.21,-159.78,68,1018,71.6,5,3.6
Abnūb,EG,2020-06-16 17:35:41,27.27,31.15,30,1010,95.0,0,5.7
Vestmanna,FO,2020-06-16 17:35:41,62.16,-7.17,93,1017,51.8,100,5.1
Muş Province,TR,2020-06-16 17:35:42,39.0,41.75,59,1009,61.23,31,1.92
São Filipe,CV,2020-06-16 17:35:42,14.9,-24.5,78,1014,77.81,4,4.67
Seoul,KR,2020-06-16 17:32:12,37.57,126.98,93,1005,68.0,48,0.5
Cayenne,GF,2020-06-16 17:35:42,4.93,-52.33,70,1012,86.0,96,7.2
Laem Sing,TH,2020-06-16 17:35:42,12.48,102.07,82,1010,79.83,100,1.71
Esperance,AU,2020-06-16 17:35:43,-33.87,121.9,66,1020,53.6,28,7.2
Novoasbest,RU,2020-06-16 17:35:43,57.74,60.29,80,1013,59.76,49,3.36
Manggar,ID,2020-06-16 17:35:43,-2.88,108.27,86,1009,80.74,58,3.55
Coquimbo,CL,2020-06-16 17:35:43,-29.95,-71.34,71,1016,57.2,75,4.1
Poum,NC,2020-06-16 17:26:34,-20.23,164.02,74,1017,74.05,5,6.61
Nynäshamn,SE,2020-06-16 17:35:44,58.9,17.95,82,1014,62.01,40,3.7
Provideniya,RU,2020-06-16 17:35:44,64.38,-173.3,51,1010,54.32,63,0.65
Benguela,AO,2020-06-16 17:35:44,-12.58,13.41,81,1014,71.55,0,1.15
Taupo,NZ,2020-06-16 17:35:44,-38.68,176.08,91,1026,48.0,55,1.29
Cidreira,BR,2020-06-16 17:35:44,-30.18,-50.21,81,1022,65.59,1,4.99
Praia da Vitória,PT,2020-06-16 17:35:45,38.73,-27.07,60,1024,73.4,20,3.67
Shorāpur,IN,2020-06-16 17:35:45,16.52,76.75,80,1005,77.49,100,5.65
Coruripe,BR,2020-06-16 17:35:45,-10.13,-36.18,72,1017,80.08,12,5.23
Flinders,AU,2020-06-16 17:35:45,-34.58,150.86,71,1021,55.0,5,0.45
Tiko,CM,2020-06-16 17:35:46,4.07,9.37,74,1009,86.0,40,2.1
Jishu,CN,2020-06-16 17:35:46,44.32,126.8,71,1001,61.07,17,2.8
Izačić,BA,2020-06-16 17:35:46,44.88,15.78,74,1012,69.01,76,0.45
Kamskoye Ustye,RU,2020-06-16 17:35:46,55.2,49.27,56,1017,68.0,28,3.0
Broken Hill,AU,2020-06-16 17:35:46,-31.95,141.43,76,1029,50.0,90,2.1
San Isidro,PE,2020-06-16 17:35:47,-12.12,-77.05,60,1016,69.8,20,3.6
Naze,JP,2020-06-16 17:35:47,28.37,129.48,100,1006,77.0,75,3.1
Souillac,MU,2020-06-16 17:35:47,-20.52,57.52,78,1021,71.6,40,5.1
Sirūr,IN,2020-06-16 17:35:47,18.83,74.38,79,1003,78.26,89,5.49
Airai,TL,2020-06-16 17:35:47,-8.93,125.41,100,1012,57.29,45,2.05
Pevek,RU,2020-06-16 17:35:48,69.7,170.31,69,1009,44.4,28,0.75
Carnarvon,AU,2020-06-16 17:35:48,-24.87,113.63,38,1017,59.0,0,3.1
La Ronge,CA,2020-06-16 17:35:48,55.1,-105.28,55,1007,64.4,75,2.1
Ha Tinh,VN,2020-06-16 17:35:48,18.33,105.9,68,1005,82.87,91,2.88
Sur,OM,2020-06-16 17:35:48,22.57,59.53,57,997,90.41,11,6.12
Brora,GB,2020-06-16 17:35:49,58.01,-3.85,90,1015,64.4,75,3.1
Kampong Thom,KH,2020-06-16 17:35:49,12.71,104.89,90,1009,78.39,100,1.02
Weleri,ID,2020-06-16 17:35:49,-6.97,110.07,79,1011,77.14,0,1.51
Jumla,NP,2020-06-16 17:35:49,29.27,82.18,70,1009,62.65,60,0.36
Vuktyl,RU,2020-06-16 17:35:49,63.86,57.31,87,1009,46.2,100,4.98
Tiznit Province,MA,2020-06-16 17:35:50,29.58,-9.5,34,1018,77.32,25,3.4
Tuatapere,NZ,2020-06-16 17:35:50,-46.13,167.68,85,1012,49.66,65,2.61
Bourail,NC,2020-06-16 17:35:50,-21.57,165.48,82,1018,66.74,0,1.55
Saint Paul Harbor,US,2020-06-16 17:35:50,57.79,-152.41,87,1008,51.8,90,6.2
Santiago,CL,2020-06-16 17:26:40,-33.46,-70.65,66,1014,55.4,90,1.0
Killarney,IE,2020-06-16 17:35:51,52.05,-9.52,87,1016,57.2,75,3.1
Hasaki,JP,2020-06-16 17:35:51,35.73,140.83,82,1003,68.0,20,4.1
Yelan',RU,2020-06-16 17:35:51,50.95,43.74,47,1009,70.0,0,3.6
Amudat,UG,2020-06-16 17:35:51,1.95,34.95,81,1014,69.39,72,1.18
Tikhoretsk,RU,2020-06-16 17:35:51,45.85,40.13,73,1010,73.71,67,1.27
Vredendal,ZA,2020-06-16 17:35:52,-31.67,18.5,31,1028,61.63,0,5.71
Dunedin,NZ,2020-06-16 17:31:12,-45.87,170.5,54,1018,59.0,100,4.92
Panguna,PG,2020-06-16 17:35:52,-6.32,155.48,100,1009,68.52,100,0.32
Sandakan,MY,2020-06-16 17:35:52,5.84,118.12,94,1010,78.8,40,3.6
Yerbogachën,RU,2020-06-16 17:26:14,61.28,108.01,66,1008,47.88,100,1.63
Helong,CN,2020-06-16 17:35:52,42.54,129.0,65,1004,59.67,11,3.31
Sinnamary,GF,2020-06-16 17:35:52,5.38,-52.95,77,1012,82.67,64,4.36
Ancud,CL,2020-06-16 17:35:53,-41.87,-73.82,87,1009,55.99,98,5.1
Leningradskiy,RU,2020-06-16 17:35:53,69.38,178.42,76,1011,47.32,0,2.96
Ola,RU,2020-06-16 17:35:53,59.58,151.28,77,1012,48.45,2,1.58
Lompoc,US,2020-06-16 17:35:53,34.64,-120.46,72,1016,66.0,39,5.7
Homer,US,2020-06-16 17:35:53,59.64,-151.55,50,1012,57.2,90,3.1
Mariehamn,AX,2020-06-16 17:35:53,60.1,19.93,100,1014,57.2,75,3.6
Sortland,NO,2020-06-16 17:35:54,68.69,15.42,62,1021,55.4,9,5.1
Canutama,BR,2020-06-16 17:35:54,-6.53,-64.38,44,1011,91.74,15,1.57
Autazes,BR,2020-06-16 17:35:54,-3.58,-59.13,57,1010,88.84,40,1.15
Acapulco de Juárez,MX,2020-06-16 17:35:54,16.86,-99.89,70,1013,87.8,20,3.6
Makakilo City,US,2020-06-16 17:26:40,21.35,-158.09,88,1019,73.4,1,2.1
Saint-Philippe,RE,2020-06-16 17:35:54,-21.36,55.77,72,1021,68.0,90,4.1
Lázaro Cárdenas,MX,2020-06-16 17:35:55,17.96,-102.2,58,1013,87.85,10,3.41
Coyhaique,CL,2020-06-16 17:35:55,-45.58,-72.07,93,1007,39.2,75,3.6
Kruisfontein,ZA,2020-06-16 17:35:55,-34.0,24.73,92,1033,52.84,0,2.84
Chui,UY,2020-06-16 17:35:55,-33.7,-53.46,77,1019,67.06,19,3.69
Ponta Delgada,PT,2020-06-16 17:35:55,37.73,-25.67,73,1022,69.8,20,7.2
Hobyo,SO,2020-06-16 17:35:56,5.35,48.53,68,1011,81.41,63,11.91
Mandalgovi,MN,2020-06-16 17:35:56,45.76,106.27,53,1002,63.27,85,3.61
Ji’an,CN,2020-06-16 17:35:56,27.12,114.98,75,1004,79.79,0,4.09
Alofi,NU,2020-06-16 17:26:37,-19.06,-169.92,73,1017,69.8,20,5.1
Ferreira do Alentejo,PT,2020-06-16 17:35:56,38.05,-8.03,50,1021,77.0,20,7.7
Morondava,MG,2020-06-16 17:35:57,-20.28,44.28,71,1018,75.72,0,6.27
Puyo,EC,2020-06-16 17:32:09,-1.47,-77.98,83,1020,71.6,75,2.6
Huarmey,PE,2020-06-16 17:26:49,-10.07,-78.15,63,1016,70.3,5,5.64
Isangel,VU,2020-06-16 17:35:57,-19.55,169.27,80,1017,73.31,2,5.59
Douentza,ML,2020-06-16 17:35:57,15.0,-2.95,11,1005,108.41,31,3.29
Marawi,PH,2020-06-16 17:35:57,8.0,124.29,90,1009,78.01,23,0.89
Mayumba,GA,2020-06-16 17:35:58,-3.43,10.66,88,1013,74.3,100,1.58
Cavalcante,BR,2020-06-16 17:35:58,-13.8,-47.46,54,1018,75.47,62,5.23
Aklavik,CA,2020-06-16 17:32:04,68.22,-135.01,45,1009,62.6,90,4.1
Narsaq,GL,2020-06-16 17:35:58,60.92,-46.05,87,1012,42.8,75,0.5
Alice Springs,AU,2020-06-16 17:34:53,-23.7,133.88,47,1026,37.4,0,0.5
Upernavik,GL,2020-06-16 17:35:59,72.79,-56.15,94,1008,32.31,20,3.82
Misilmeri,IT,2020-06-16 17:35:59,38.03,13.45,78,1014,77.0,20,6.2
Juneau,US,2020-06-16 17:31:31,58.3,-134.42,93,1016,53.01,90,2.1
Saldanha,ZA,2020-06-16 17:35:59,-33.01,17.94,45,1027,66.2,0,2.1
Conde,BR,2020-06-16 17:35:59,-7.26,-34.91,78,1014,80.6,40,6.7
Hervey Bay,AU,2020-06-16 17:35:59,-25.3,152.85,93,1022,64.4,63,3.6
Hithadhoo,MV,2020-06-16 17:35:59,-0.6,73.08,76,1010,84.65,0,4.29
Isla Vista,US,2020-06-16 17:36:00,34.41,-119.86,77,1015,64.99,90,2.88
Vao,NC,2020-06-16 17:36:00,-22.67,167.48,81,1019,72.86,21,7.57
Sitka,US,2020-06-16 17:36:00,57.05,-135.33,81,1018,51.8,75,4.6
Quelimane,MZ,2020-06-16 17:36:00,-17.88,36.89,68,1024,71.01,40,2.1
Logan Lake,CA,2020-06-16 17:36:00,50.5,-120.8,62,1015,59.0,75,3.6
Jiwani,PK,2020-06-16 17:36:01,25.05,61.74,85,998,85.42,40,5.06
Snina,SK,2020-06-16 17:32:07,48.99,22.15,86,1008,66.0,56,2.83
Bathsheba,BB,2020-06-16 17:26:49,13.22,-59.52,62,1015,86.0,40,8.7
Touros,BR,2020-06-16 17:36:01,-5.2,-35.46,83,1013,78.8,75,3.6
Changji,CN,2020-06-16 17:36:01,44.02,87.32,24,1006,82.4,100,3.0
Tortolì,IT,2020-06-16 17:36:02,39.93,9.66,28,1012,82.4,20,7.2
Yar-Sale,RU,2020-06-16 17:36:02,66.83,70.83,60,1004,44.02,90,2.5
Chimoré,BO,2020-06-16 17:32:08,-16.98,-65.13,44,1013,86.4,97,2.04
Bereda,ES,2020-06-16 17:36:02,43.27,-7.54,79,1020,62.01,16,4.02
Jalu,LY,2020-06-16 17:36:03,29.03,21.55,32,1012,81.32,0,8.37
Meulaboh,ID,2020-06-16 17:36:03,4.14,96.13,81,1012,78.1,99,1.75
Doka,SD,2020-06-16 17:36:03,13.52,35.77,54,1009,84.92,100,1.97
Neuquén,AR,2020-06-16 17:36:03,-38.95,-68.06,61,1013,46.4,98,1.0
Balaipungut,ID,2020-06-16 17:36:03,1.05,101.28,89,1010,76.59,96,0.85
Adiaké,CI,2020-06-16 17:36:03,5.29,-3.3,83,1011,82.4,40,6.2
Beidao,CN,2020-06-16 17:36:04,34.57,105.89,72,1008,63.55,100,2.92
Riyadh,SA,2020-06-16 17:34:03,24.69,46.72,19,1005,100.4,17,5.07
Mtsamboro,YT,2020-06-16 17:36:04,-12.7,45.07,74,1017,78.8,92,6.2
Ostrovnoy,RU,2020-06-16 17:36:04,68.05,39.51,65,1021,44.08,95,7.95
Brigantine,US,2020-06-16 17:36:04,39.41,-74.36,53,1028,71.6,1,9.3
Saint-Pierre,RE,2020-06-16 17:26:20,-21.34,55.48,72,1021,68.0,90,4.1
Tibati,CM,2020-06-16 17:36:05,6.47,12.63,81,1011,73.29,99,0.83
Mount Isa,AU,2020-06-16 17:36:05,-20.73,139.5,29,1021,62.6,0,5.7
Burns Lake,CA,2020-06-16 17:36:05,54.23,-125.75,40,1014,60.96,35,2.59
Worland,US,2020-06-16 17:36:05,44.02,-107.96,32,1008,73.0,1,2.31
Bonavista,CA,2020-06-16 17:36:05,48.65,-53.11,50,1021,57.87,33,3.99
Zhanakorgan,KZ,2020-06-16 17:36:05,43.91,67.25,33,1010,67.53,0,5.18
Platteville,US,2020-06-16 17:36:06,42.73,-90.48,41,1026,78.01,1,5.1
Ponoka,CA,2020-06-16 17:35:10,52.68,-113.58,51,1012,60.8,40,4.6
Kahului,US,2020-06-16 17:36:06,20.89,-156.47,78,1019,77.0,40,4.6
Okhotsk,RU,2020-06-16 17:36:06,59.38,143.3,83,1014,44.98,2,1.51
Tuy Hoa,VN,2020-06-16 17:26:29,13.08,109.3,85,1010,79.12,100,1.9
Dubăsari,MD,2020-06-16 17:36:07,47.26,29.16,64,1008,73.4,20,1.61
San Borja,BO,2020-06-16 17:36:07,-14.82,-66.85,42,1014,88.65,92,2.16
Grand-Santi,GF,2020-06-16 17:36:07,4.25,-54.38,91,1011,82.83,53,1.78
Bahía Blanca,AR,2020-06-16 17:36:07,-38.72,-62.27,54,1012,58.15,100,0.98
Ayr,GB,2020-06-16 17:36:07,55.46,-4.63,87,1014,60.8,40,2.6
Muyezerskiy,RU,2020-06-16 17:36:08,63.93,31.65,61,1021,55.87,42,3.12
Kavaratti,IN,2020-06-16 17:36:08,10.57,72.64,79,1007,84.87,100,8.61
Bereket,TM,2020-06-16 17:36:08,39.24,55.52,17,1006,92.1,0,2.22
Sumbe,AO,2020-06-16 17:36:08,-11.21,13.84,86,1014,75.2,90,3.1
Manzhouli,CN,2020-06-16 17:36:08,49.6,117.43,53,999,64.09,3,2.3
Sigli,ID,2020-06-16 17:36:08,5.38,95.96,71,1011,80.4,99,1.8
Dikson,RU,2020-06-16 17:36:09,73.51,80.55,95,992,32.25,98,6.24
Iqaluit,CA,2020-06-16 17:36:09,63.75,-68.51,64,1012,39.2,90,3.1
Great Yarmouth,GB,2020-06-16 17:34:47,52.61,1.73,64,1013,71.01,20,4.1
Avaré,BR,2020-06-16 17:34:57,-23.1,-48.93,58,1022,73.4,5,2.89
Sabang,ID,2020-06-16 17:36:09,5.89,95.32,71,1010,84.27,77,3.4
La Palma,US,2020-06-16 17:36:09,33.85,-118.05,72,1015,68.0,90,1.5
Adrar,MR,2020-06-16 17:36:10,20.5,-10.07,10,1010,107.4,0,9.55
Winnemucca,US,2020-06-16 17:36:10,40.97,-117.74,51,1014,62.6,75,4.1
Kumul,CN,2020-06-16 17:36:10,42.8,93.45,16,1002,82.13,0,2.54
Bosaso,SO,2020-06-16 17:36:10,11.28,49.18,45,1005,93.16,75,3.69
College,US,2020-06-16 17:36:10,64.86,-147.8,77,1006,64.0,75,0.18
Wawa,NG,2020-06-16 17:36:10,9.9,4.42,60,1008,88.09,27,1.23
Avera,US,2020-06-16 17:36:11,33.19,-82.53,77,1022,68.0,90,3.1
Kuytun,RU,2020-06-16 17:36:11,54.34,101.5,91,1014,48.54,99,1.78
Pangnirtung,CA,2020-06-16 17:36:11,66.15,-65.71,80,1012,35.6,75,4.6
Olafsvik,IS,2020-06-16 17:36:11,64.89,-23.71,74,1017,47.16,4,4.66
Atambua,ID,2020-06-16 17:36:11,-9.11,124.89,89,1012,71.06,55,2.56
San Cristobal,VE,2020-06-16 17:36:11,7.77,-72.22,52,1015,89.6,20,3.1
Izhma,RU,2020-06-16 17:36:12,65.01,53.91,77,1014,43.66,92,3.61
Vila Franca do Campo,PT,2020-06-16 17:36:12,37.72,-25.43,73,1022,69.8,20,7.2
Antalaha,MG,2020-06-16 17:26:15,-14.9,50.28,84,1020,70.38,57,4.28
Linjiang,CN,2020-06-16 17:36:12,41.81,126.91,82,1006,54.05,0,0.71
Tondano,ID,2020-06-16 17:36:12,1.3,124.91,94,1010,75.2,20,1.0
Ust-Maya,RU,2020-06-16 17:36:12,60.42,134.53,77,1012,50.07,0,0.76
Caravelas,BR,2020-06-16 17:36:13,-17.71,-39.25,73,1021,77.5,19,4.98
Hualmay,PE,2020-06-16 17:36:13,-11.1,-77.61,67,1016,68.11,14,5.22
Lora del Río,ES,2020-06-16 17:36:13,37.66,-5.53,54,1016,82.0,50,4.02
Tsogni,GA,2020-06-16 17:36:13,-2.79,10.1,88,1013,73.63,97,2.01
Kurumkan,RU,2020-06-16 17:36:13,54.3,110.3,74,1005,58.78,86,1.49
Kon Tum,VN,2020-06-16 17:36:13,14.35,108.0,93,1010,70.93,100,0.07
Tautira,PF,2020-06-16 17:26:55,-17.73,-149.15,78,1011,80.6,40,6.2
Alekseyevka,RU,2020-06-16 17:36:14,50.63,38.69,74,1016,65.93,4,4.68
Batagay-Alyta,RU,2020-06-16 17:36:14,67.8,130.41,70,1006,55.51,52,2.1
Mezhdurechensk,RU,2020-06-16 17:36:14,53.69,88.06,85,1013,46.22,4,1.09
Evanton,GB,2020-06-16 17:36:14,57.66,-4.34,77,1014,66.2,40,3.6
Hondomachi-hondo,JP,2020-06-16 17:36:15,32.45,130.2,83,1005,73.0,100,3.58
Baharly,TM,2020-06-16 17:36:15,38.44,57.43,21,1008,91.69,37,2.01
Artigas,UY,2020-06-16 17:36:15,-30.4,-56.47,78,1016,74.34,61,6.91
Limbang,MY,2020-06-16 17:36:15,4.75,115.0,94,1009,78.8,75,1.0
Tamandaré,BR,2020-06-16 17:36:15,-8.76,-35.1,76,1016,79.56,37,5.78
Bollnäs,SE,2020-06-16 17:36:15,61.35,16.39,54,1016,64.94,44,3.7
Sirte,LY,2020-06-16 17:26:23,31.21,16.59,72,1016,73.06,0,6.39
Forsytheganj,BY,2020-06-16 17:36:16,52.63,29.73,85,1012,70.48,4,3.47
Ponta do Sol,PT,2020-06-16 17:36:16,32.67,-17.1,94,1022,69.8,40,3.1
Kamenka,RU,2020-06-16 17:26:33,51.32,42.77,44,1009,75.0,0,0.45
Silva Jardim,BR,2020-06-16 17:36:16,-22.65,-42.39,64,1026,75.2,40,3.6
Bengkulu,ID,2020-06-16 17:36:16,-3.8,102.27,89,1011,77.59,100,2.98
Nantucket,US,2020-06-16 17:24:27,41.28,-70.1,56,1029,69.8,1,7.7
Shiyan,CN,2020-06-16 17:36:17,32.65,110.78,89,1002,67.15,100,2.48
Lishan,CN,2020-06-16 17:36:17,31.86,113.3,93,1000,73.53,99,3.05
Maniitsoq,GL,2020-06-16 17:36:17,65.42,-52.9,96,1010,35.01,100,7.69
Belle Fourche,US,2020-06-16 17:33:05,44.67,-103.85,13,1003,89.01,100,5.81
Sørland,NO,2020-06-16 17:36:18,67.67,12.69,76,1021,51.8,6,4.1
Sampit,ID,2020-06-16 17:36:18,-2.53,112.95,96,1009,74.66,19,1.16
Nhulunbuy,AU,2020-06-16 17:36:18,-12.23,136.77,83,1013,77.0,75,5.7
Nanortalik,GL,2020-06-16 17:36:18,60.14,-45.24,88,1012,39.25,100,4.72
Ilhabela,BR,2020-06-16 17:36:18,-23.78,-45.36,77,1025,71.8,14,4.93
Troina,IT,2020-06-16 17:36:18,37.79,14.6,69,1013,78.8,20,6.2
Sambava,MG,2020-06-16 17:36:18,-14.27,50.17,85,1019,71.28,87,6.14
Barabinsk,RU,2020-06-16 17:36:19,55.36,78.36,85,1014,47.88,10,1.18
Okato,NZ,2020-06-16 17:36:19,-39.2,173.88,93,1026,57.99,100,5.81
Tacoronte,ES,2020-06-16 17:36:19,28.48,-16.41,53,1024,77.0,86,13.4
Agüimes,ES,2020-06-16 17:36:19,27.91,-15.45,57,1021,81.0,43,13.9
Den Helder,NL,2020-06-16 17:35:54,52.96,4.76,72,1014,66.2,90,2.1
Ambikāpur,IN,2020-06-16 17:36:20,23.12,83.2,85,999,78.26,100,1.81
Eyrarbakki,IS,2020-06-16 17:36:20,63.86,-21.15,66,1018,50.0,20,5.1
Goba,ET,2020-06-16 17:36:20,7.02,39.98,82,1015,51.78,2,1.62
Arlit,NE,2020-06-16 17:36:20,18.74,7.39,7,1006,106.39,0,7.3
Hayrabolu,TR,2020-06-16 17:36:20,41.21,27.11,83,1007,71.6,40,5.1
Kavieng,PG,2020-06-16 17:36:20,-2.57,150.8,69,1008,83.82,85,3.83
Normandin,CA,2020-06-16 17:36:20,48.83,-72.53,24,1024,80.6,75,4.1
Himatnagar,IN,2020-06-16 17:36:21,23.6,72.95,79,999,89.6,40,5.7
General Roca,AR,2020-06-16 17:36:21,-39.03,-67.58,61,1013,46.4,100,1.0
Vetluga,RU,2020-06-16 17:36:21,57.86,45.78,93,1015,63.82,60,2.29
Howell,US,2020-06-16 17:36:21,42.61,-83.93,53,1028,82.0,40,2.1
Arrondissement de Foix,FR,2020-06-16 17:36:21,42.83,1.58,93,1018,57.0,100,0.97
Port Macquarie,AU,2020-06-16 17:31:41,-31.43,152.92,100,1026,48.0,1,2.1
Roald,NO,2020-06-16 17:36:22,62.58,6.13,82,1016,66.99,50,4.6
Plyussa,RU,2020-06-16 17:36:22,58.43,29.37,87,1014,70.63,66,0.67
Rūdbār,AF,2020-06-16 17:36:22,30.15,62.6,9,995,95.94,0,4.14
Samarai,PG,2020-06-16 17:36:22,-10.62,150.67,82,1010,79.66,99,9.07
Nānākuli,US,2020-06-16 17:35:12,21.39,-158.15,88,1019,73.4,1,2.1
Ambulu,ID,2020-06-16 17:36:22,-8.35,113.61,87,1011,75.79,25,2.25
Yangi Marg`ilon,UZ,2020-06-16 17:36:23,40.43,71.72,28,1005,80.6,20,6.2
Zalari,RU,2020-06-16 17:36:23,53.56,102.51,85,1014,51.66,52,3.46
Katsuura,JP,2020-06-16 17:36:23,35.13,140.3,73,1003,71.6,2,4.6
Vágur,FO,2020-06-16 17:36:23,61.47,-6.81,95,1016,51.01,100,0.95
Westport,US,2020-06-16 17:36:24,41.14,-73.36,53,1029,77.0,1,4.6
Waingapu,ID,2020-06-16 17:26:57,-9.66,120.26,83,1012,76.89,64,4.94
Bousso,TD,2020-06-16 17:36:24,10.48,16.71,34,1005,94.17,51,2.28
Tubualá,PA,2020-06-16 17:36:24,9.52,-79.03,79,1012,89.01,40,3.1
Pierre,US,2020-06-16 17:35:02,44.37,-100.35,45,1008,88.0,1,8.2
Zlobin,HR,2020-06-16 17:36:24,45.29,14.65,41,1010,77.0,20,2.6
Fare,PF,2020-06-16 17:36:25,-16.7,-151.02,80,1013,80.6,59,6.51
Qena,EG,2020-06-16 17:36:25,26.16,32.72,22,1004,98.6,0,4.37
Chegutu,ZW,2020-06-16 17:36:25,-18.13,30.14,56,1025,54.19,0,3.89
Saint Anthony,US,2020-06-16 17:35:52,45.02,-93.22,42,1019,87.01,1,5.1
Assomada,CV,2020-06-16 17:36:25,15.1,-23.68,66,1013,86.0,20,4.1
Ghanzi,BW,2020-06-16 17:36:25,-21.57,21.78,41,1024,52.54,0,2.57
Dunda,TZ,2020-06-16 17:36:25,-8.12,34.25,62,1019,59.79,10,1.78
San Vicente,AR,2020-06-16 17:36:26,-26.62,-54.13,56,1018,75.45,15,3.01
Olecko,PL,2020-06-16 17:36:26,54.03,22.51,82,1013,64.62,55,1.91
Moerai,PF,2020-06-16 17:36:26,-22.43,-151.33,82,1018,66.69,99,10.15
Meadow Lake,US,2020-06-16 17:36:26,34.8,-106.54,27,1022,84.0,20,3.6
Lexington,US,2020-06-16 17:32:03,37.99,-84.48,53,1026,75.99,1,6.2
Tambura,SS,2020-06-16 17:36:27,5.6,27.47,92,1011,71.58,99,1.53
Kaeo,NZ,2020-06-16 17:36:27,-35.1,173.78,3,1028,57.99,3,1.34
Salalah,OM,2020-06-16 17:36:27,17.02,54.09,79,1000,87.8,75,3.6
Bubaque,GW,2020-06-16 17:36:27,11.28,-15.83,86,1011,81.28,37,7.24
Riachão das Neves,BR,2020-06-16 17:36:27,-11.75,-44.91,38,1016,85.06,4,4.04
Kurayoshi,JP,2020-06-16 17:36:27,35.43,133.82,93,1006,64.4,75,2.1
Muhafazat Lahij,YE,2020-06-16 17:36:28,13.17,44.58,39,1005,91.18,100,2.14
Bonnyville,CA,2020-06-16 17:36:28,54.27,-110.73,48,1009,64.4,20,5.7
Goma,CD,2020-06-16 17:36:28,-1.68,29.22,68,1021,69.8,40,4.1
Korla,CN,2020-06-16 17:36:28,41.76,86.15,49,1004,82.0,37,0.45
Hohhot,CN,2020-06-16 17:36:28,40.81,111.65,25,1007,75.2,40,1.0
Mackay,AU,2020-06-16 17:36:28,-21.15,149.2,88,1020,68.0,90,3.1
Suntar,RU,2020-06-16 17:36:29,62.14,117.63,92,1002,58.53,98,2.34
Kirkwood,US,2020-06-16 17:32:48,38.58,-90.41,34,1025,82.0,20,2.6
Luanda,AO,2020-06-16 17:32:18,-8.84,13.23,83,1011,75.2,40,3.1
Fortuna,US,2020-06-16 17:36:29,40.6,-124.16,72,1020,62.01,75,3.6
Deming,US,2020-06-16 17:36:29,32.27,-107.76,28,1020,82.4,1,3.6
Deep River,CA,2020-06-16 17:33:14,46.1,-77.5,46,1028,75.99,1,3.6
Yerofey Pavlovich,RU,2020-06-16 17:36:30,53.97,121.97,77,1008,47.8,9,2.15
Tricase,IT,2020-06-16 17:36:30,39.93,18.36,88,1011,69.01,75,2.1
Burnie,AU,2020-06-16 17:36:30,-41.07,145.92,74,1016,43.0,0,0.45
Tokur,RU,2020-06-16 17:36:30,53.13,132.9,91,1010,36.99,98,1.38
Cochrane,CA,2020-06-16 17:34:06,51.18,-114.47,44,1013,57.99,90,3.6
Mitú,CO,2020-06-16 17:36:31,1.2,-70.17,48,1011,90.09,32,1.44
Nemuro,JP,2020-06-16 17:36:31,43.32,145.57,99,1001,54.34,100,3.77
Northam,GB,2020-06-16 17:26:52,51.03,-4.22,85,1013,66.0,85,0.89
Tilichiki,RU,2020-06-16 17:36:31,60.47,166.1,84,1013,42.21,0,1.88
Novo Aripuanã,BR,2020-06-16 17:36:31,-5.12,-60.38,51,1010,90.05,21,1.37
Sibay,RU,2020-06-16 17:36:31,52.72,58.67,60,1018,58.64,29,1.61
Strakonice,CZ,2020-06-16 17:36:32,49.26,13.9,74,1006,70.0,77,1.66
Xalapa,MX,2020-06-16 17:35:05,19.53,-96.92,57,1017,75.56,4,2.3
Dongning,CN,2020-06-16 17:36:32,44.06,131.12,80,1000,59.09,43,2.27
Levelland,US,2020-06-16 17:36:32,33.59,-102.38,42,1021,86.0,40,7.7
Skibbereen,IE,2020-06-16 17:36:32,51.55,-9.27,77,1015,62.6,40,6.2
Khorixas,NA,2020-06-16 17:36:32,-20.37,14.97,30,1018,67.26,0,4.82
Lerwick,GB,2020-06-16 17:36:33,60.15,-1.15,93,1016,60.8,0,3.6
San Angelo,US,2020-06-16 17:33:36,31.46,-100.44,40,1020,89.01,1,6.7
Sisimiut,GL,2020-06-16 17:36:33,66.94,-53.67,74,1009,38.86,100,2.76
Partenit,UA,2020-06-16 17:36:33,44.58,34.34,84,1009,67.53,18,2.7
Zhangjiakou Shi Xuanhua Qu,CN,2020-06-16 17:36:33,40.61,115.04,33,1005,74.21,92,1.54
Alyangula,AU,2020-06-16 17:36:33,-13.85,136.42,94,1014,69.8,1,6.58
Labuhan,ID,2020-06-16 17:36:34,-6.88,112.21,82,1011,77.76,0,3.18
Araouane,ML,2020-06-16 17:36:34,18.9,-3.53,6,1005,111.2,26,2.82
Clyde River,CA,2020-06-16 17:36:34,70.47,-68.59,74,1013,35.6,75,2.6
Ilulissat,GL,2020-06-16 17:36:34,69.22,-51.1,45,1006,44.6,40,3.1
Saint-Gabriel,CA,2020-06-16 17:36:34,46.3,-73.38,3,1029,80.01,36,4.26
Comodoro Rivadavia,AR,2020-06-16 17:36:34,-45.87,-67.5,44,1004,59.0,45,6.7
Erenhot,CN,2020-06-16 17:36:35,43.65,111.98,17,999,79.3,100,3.08
Port Jervis,US,2020-06-16 17:36:35,41.38,-74.69,41,1029,75.2,1,5.1
Djibouti,DJ,2020-06-16 17:36:35,11.5,42.5,31,1003,93.04,20,3.76
Manicoré,BR,2020-06-16 17:36:35,-5.81,-61.3,55,1013,89.6,20,3.6
Jacareacanga,BR,2020-06-16 17:36:35,-6.22,-57.75,49,1012,93.2,20,3.1
Fairlie,GB,2020-06-16 17:36:36,55.76,-4.86,64,1013,69.8,100,3.1
Baracoa,CU,2020-06-16 17:36:36,20.35,-74.5,67,1015,86.79,99,2.63
Saint-Leu,RE,2020-06-16 17:36:36,-21.15,55.28,72,1021,68.0,90,4.1
Taoudenni,ML,2020-06-16 17:36:36,22.68,-3.98,6,1007,110.91,0,6.54
La Asuncion,VE,2020-06-16 17:36:37,11.03,-63.86,94,1015,75.2,85,7.2
Erzin,TR,2020-06-16 17:36:37,36.96,36.2,82,1009,75.0,0,2.24
Laguna,US,2020-06-16 17:36:37,38.42,-121.42,43,1015,73.99,1,2.6
Oriximiná,BR,2020-06-16 17:36:37,-1.77,-55.87,78,1010,83.46,36,2.19
Dali,CN,2020-06-16 17:36:37,25.7,100.18,84,1004,64.67,65,2.64
Bukachacha,RU,2020-06-16 17:36:38,52.98,116.92,88,1003,53.37,9,1.56
Fort Nelson,CA,2020-06-16 17:36:38,58.81,-122.7,93,1012,50.0,90,3.1
Detchino,RU,2020-06-16 17:36:38,54.81,36.31,57,1017,75.2,0,3.0
Yenangyaung,MM,2020-06-16 17:36:38,20.47,94.88,72,1004,82.42,100,8.04
Quang Ngai,VN,2020-06-16 17:36:38,15.12,108.8,82,1008,77.86,100,3.49
Wewak,PG,2020-06-16 17:36:39,-3.55,143.63,82,1009,78.87,93,1.26
Pitimbu,BR,2020-06-16 17:36:39,-7.47,-34.81,78,1014,80.6,40,6.7
Shenzhen,CN,2020-06-16 17:34:40,22.55,114.07,97,995,82.0,0,3.08
Matamoros,MX,2020-06-16 17:35:28,25.53,-103.25,28,1021,86.0,5,2.1
Cruz Grande,MX,2020-06-16 17:36:39,16.73,-99.13,70,1013,87.8,20,3.6
Pahrump,US,2020-06-16 17:31:42,36.21,-115.98,26,1009,84.0,0,6.26
Andenes,NO,2020-06-16 17:36:40,69.31,16.12,70,1023,48.2,22,5.7
Ekhabi,RU,2020-06-16 17:36:40,53.51,142.97,95,1010,36.3,93,2.29
Walvis Bay,NA,2020-06-16 17:36:40,-22.96,14.51,14,1017,89.6,0,3.6
Orlea,RO,2020-06-16 17:36:40,43.75,24.38,68,1008,69.8,75,2.1
Codrington,AU,2020-06-16 17:36:40,-38.27,141.97,67,1031,50.13,78,2.8
Itarema,BR,2020-06-16 17:36:41,-2.92,-39.92,68,1012,85.08,13,5.65
Puro,PH,2020-06-16 17:36:41,12.48,123.38,81,1009,80.49,10,3.7
Saint-François,FR,2020-06-16 17:36:41,46.42,3.91,49,1014,73.0,77,3.6
Nishihara,JP,2020-06-16 17:36:41,26.18,127.76,94,1008,82.4,40,5.1
Marang,MY,2020-06-16 17:36:41,5.21,103.21,94,1009,77.0,20,2.1
Gornopravdinsk,RU,2020-06-16 17:36:41,60.05,69.9,58,1007,66.52,85,3.92
Henties Bay,NA,2020-06-16 17:36:42,-22.12,14.28,36,1016,72.63,0,5.66
Megion,RU,2020-06-16 17:36:42,61.03,76.11,67,1006,62.6,67,2.0
Ahipara,NZ,2020-06-16 17:36:42,-35.17,173.17,89,1027,55.87,29,3.76
Jodhpur,IN,2020-06-16 17:35:34,26.29,73.03,29,996,98.58,15,8.71
Inhambane,MZ,2020-06-16 17:36:42,-23.86,35.38,68,1028,68.0,20,2.6
Minsk,BY,2020-06-16 17:33:50,53.9,27.57,88,1013,69.8,93,3.0
Beringovskiy,RU,2020-06-16 17:36:42,63.05,179.32,77,1012,44.74,42,0.47
Nambucca Heads,AU,2020-06-16 17:36:43,-30.65,153.0,93,1026,51.8,6,3.1
Ubari,LY,2020-06-16 17:36:43,26.59,12.78,13,1014,84.2,0,3.25
Gbarnga,LR,2020-06-16 17:36:43,7.0,-9.47,83,1012,80.1,66,2.6
Ngawen,ID,2020-06-16 17:36:43,-7.0,111.31,89,1011,74.8,0,1.84
Rio Claro,BR,2020-06-16 17:35:45,-22.41,-47.56,53,1024,75.2,40,1.0
Bendigo,AU,2020-06-16 17:36:44,-36.77,144.28,63,1027,46.99,8,1.87
Camacha,PT,2020-06-16 17:36:44,33.08,-16.33,83,1023,73.4,20,4.6
Vernon,CA,2020-06-16 17:36:44,50.26,-119.27,62,1015,61.0,20,1.5
Turan,VN,2020-06-16 17:36:44,16.07,108.22,83,1008,82.4,75,1.5
Fojnica,BA,2020-06-16 17:31:45,43.96,17.9,93,1012,62.6,75,0.5
Kohlu,PK,2020-06-16 17:36:45,29.9,69.25,11,996,89.85,0,2.93
Cervo,ES,2020-06-16 17:36:45,43.67,-7.41,1,1003,59.0,6,4.47
Andrews,US,2020-06-16 17:35:27,32.32,-102.55,45,1021,82.4,1,5.7
Pinyug,RU,2020-06-16 17:36:45,60.25,47.78,92,1013,62.04,37,3.24
Tezu,IN,2020-06-16 17:36:45,27.92,96.17,85,1006,76.84,100,0.82
Vagay,RU,2020-06-16 17:36:45,57.94,69.02,78,1011,58.87,27,2.37
Nicoya,CR,2020-06-16 17:34:54,10.15,-85.45,70,1012,86.0,40,1.5
Dois Riachos,BR,2020-06-16 17:36:46,-9.39,-37.1,65,1016,79.18,45,6.89
Padang,ID,2020-06-16 17:36:46,-0.95,100.35,79,1011,79.27,90,2.16
Goderich,CA,2020-06-16 17:32:01,43.75,-81.72,66,1027,73.99,0,2.97
Niquero,CU,2020-06-16 17:36:46,20.04,-77.58,64,1015,86.68,98,1.73
Klaipėda,LT,2020-06-16 17:36:46,55.72,21.12,68,1013,66.2,0,1.0
Anadyr,RU,2020-06-16 17:36:47,64.75,177.48,71,1011,50.0,17,2.0
Borovoy,RU,2020-06-16 17:36:47,55.43,86.08,71,1014,51.8,0,4.0
Søgne,NO,2020-06-16 17:36:47,58.08,7.82,39,1014,78.8,0,2.6
Dillon,US,2020-06-16 17:36:47,34.42,-79.37,100,1020,66.0,90,3.1
Cockburn Town,TC,2020-06-16 17:32:31,21.46,-71.14,79,1016,82.53,99,7.84
Werda,BW,2020-06-16 17:36:48,-25.27,23.28,41,1027,53.69,0,4.73
Vysokogornyy,RU,2020-06-16 17:36:48,50.12,139.15,93,1007,41.11,99,1.52
Chokwé,MZ,2020-06-16 17:36:48,-24.53,32.98,91,1030,59.72,27,3.5
Troitsko-Pechorsk,RU,2020-06-16 17:36:49,62.71,56.2,91,1009,48.31,100,4.9
Margate,GB,2020-06-16 17:36:49,51.38,1.39,64,1013,69.8,20,4.1
Río Gallegos,AR,2020-06-16 17:36:49,-51.62,-69.22,86,1004,33.8,75,5.1
Waitati,NZ,2020-06-16 17:36:49,-45.75,170.57,54,1018,59.0,82,4.92
Villaviciosa,ES,2020-06-16 17:36:49,43.48,-5.44,73,1020,64.0,47,3.58
Royan,FR,2020-06-16 17:36:50,45.63,-1.03,63,1016,66.2,39,6.7
Tadpatri,IN,2020-06-16 17:36:50,14.92,78.02,56,1005,86.23,97,7.08
Santa Cruz de la Sierra,BO,2020-06-16 17:36:50,-17.8,-63.17,58,1014,84.2,75,7.7
Muroto-misakicho,JP,2020-06-16 17:36:50,33.28,134.15,70,1005,72.86,82,4.68
Santa Maria,BR,2020-06-16 17:36:51,-29.68,-53.81,73,1021,73.4,73,3.1
Teloloapan,MX,2020-06-16 17:36:51,18.35,-99.85,31,1010,90.0,6,0.45
Katsina,NG,2020-06-16 17:36:51,12.99,7.6,15,1004,101.79,10,4.88
Qandala,SO,2020-06-16 17:36:51,11.47,49.87,53,1004,91.89,99,1.61
Cap Malheureux,MU,2020-06-16 17:36:52,-19.98,57.61,84,1021,68.0,8,1.34
Coahuayana Viejo,MX,2020-06-16 17:26:58,18.73,-103.68,69,1017,82.4,75,3.1
Mindelo,CV,2020-06-16 17:32:59,16.89,-24.98,74,1014,82.4,24,3.6
Tombouctou,ML,2020-06-16 17:36:52,20.0,-3.0,6,1006,110.01,0,5.54
Tigil',RU,2020-06-16 17:36:52,57.8,158.67,60,1014,50.58,10,1.02
Russell,US,2020-06-16 17:36:52,32.35,-85.2,53,1021,77.0,75,5.1
Mattru,SL,2020-06-16 17:36:53,7.62,-11.83,89,1012,80.02,90,1.7
Goianésia,BR,2020-06-16 17:36:53,-15.32,-49.12,45,1017,80.91,0,5.29
Kondopoga,RU,2020-06-16 17:36:53,62.21,34.26,56,1018,68.0,12,5.0
Buraidah,SA,2020-06-16 17:36:53,26.33,43.98,18,1005,100.4,33,2.6
Namatanai,PG,2020-06-16 17:36:53,-3.67,152.43,80,1008,79.68,100,2.5
Trairi,BR,2020-06-16 17:36:53,-3.28,-39.27,68,1012,84.65,8,5.37
Qui Nhon,VN,2020-06-16 17:36:54,13.77,109.23,83,1009,79.25,100,2.29
Biak,ID,2020-06-16 17:36:54,-0.91,122.88,82,1009,76.95,47,3.13
Muisne,EC,2020-06-16 17:36:54,0.6,-80.03,79,1013,84.2,20,3.1
Dallas,US,2020-06-16 17:28:19,32.77,-96.78,38,1020,91.0,75,4.6
Springfield,US,2020-06-16 17:35:35,37.22,-93.3,57,1023,80.01,1,4.6
Norman Wells,CA,2020-06-16 17:36:55,65.28,-126.83,63,1011,60.8,75,9.8
Berdigestyakh,RU,2020-06-16 17:36:55,62.1,126.7,88,1008,52.18,1,2.53
Calama,CL,2020-06-16 17:36:55,-22.47,-68.93,14,1026,69.8,0,8.2
Rassvet,RU,2020-06-16 17:36:55,46.83,40.75,65,1010,72.45,46,3.13
Hampden,US,2020-06-16 17:36:55,42.17,-72.58,29,1028,80.01,40,2.85
Puerto Nariño,CO,2020-06-16 17:36:55,-3.77,-70.38,83,1015,82.4,75,1.0
Harper,LR,2020-06-16 17:36:56,4.38,-7.72,83,1012,79.27,72,4.46
Tessalit,ML,2020-06-16 17:36:56,20.2,1.01,6,1006,106.68,0,2.77
Mudgee,AU,2020-06-16 17:36:56,-32.59,149.59,100,1028,35.6,12,1.4
Verkhnyaya Inta,RU,2020-06-16 17:36:56,65.98,60.31,68,1009,44.01,98,4.88
Nchelenge,ZM,2020-06-16 17:36:56,-9.35,28.73,53,1017,67.93,0,2.07
Mananjary,MG,2020-06-16 17:36:56,-21.22,48.33,86,1024,68.95,84,3.97
Shakawe,BW,2020-06-16 17:36:57,-18.37,21.85,39,1020,62.01,0,2.35
Torrijos,ES,2020-06-16 17:36:57,39.98,-4.28,25,1009,80.01,63,10.28
Muhos,FI,2020-06-16 17:36:57,64.81,25.99,45,1019,66.2,7,5.1
Shetpe,KZ,2020-06-16 17:36:57,44.17,52.12,19,1012,79.23,97,7.57
Santa Ana,US,2020-06-16 17:36:57,33.75,-117.87,72,1015,66.99,90,3.38
Chengde,CN,2020-06-16 17:36:57,40.97,117.94,47,1004,66.02,73,0.36
San Jose,US,2020-06-16 17:34:01,37.34,-121.89,52,1017,70.0,20,3.1
Coos Bay,US,2020-06-16 17:36:58,43.37,-124.22,82,1020,59.0,90,4.6
Alta Floresta,BR,2020-06-16 17:36:58,-9.88,-56.09,36,1014,93.2,20,5.1
Batagay,RU,2020-06-16 17:36:58,67.63,134.63,53,1007,64.36,90,2.76
Qasigiannguit,GL,2020-06-16 17:36:58,68.82,-51.19,45,1006,44.6,40,3.1
Sakakah,SA,2020-06-16 17:35:29,29.97,40.21,12,1012,95.0,0,5.1
Buenos Aires,AR,2020-06-16 17:31:29,-34.61,-58.38,77,1014,71.01,71,3.1
San Patricio,MX,2020-06-16 17:36:59,19.22,-104.7,74,1014,86.0,20,5.1
Silifke,TR,2020-06-16 17:36:59,36.38,33.93,66,1010,76.78,8,2.57
Khudumelapye,BW,2020-06-16 17:36:59,-23.88,24.75,64,1026,55.15,62,5.65
Mugur-Aksy,RU,2020-06-16 17:36:59,50.35,90.5,76,1008,49.41,53,0.9
Lumphat,KH,2020-06-16 17:37:00,13.49,106.98,97,1010,74.48,100,1.35
Kieta,PG,2020-06-16 17:37:00,-6.22,155.63,78,1009,78.03,100,0.77
Yubileynyy,RU,2020-06-16 17:37:00,58.78,57.78,46,1009,61.0,20,0.45
Pemberton,CA,2020-06-16 17:37:00,50.32,-122.8,71,1017,51.8,75,1.0
Kismayo,SO,2020-06-16 17:37:00,-0.36,42.55,72,1014,78.91,95,8.81
Timbiquí,CO,2020-06-16 17:37:01,2.77,-77.67,85,1011,82.29,100,3.29
Exeter,GB,2020-06-16 17:37:01,50.72,-3.53,92,1013,66.0,61,1.92
Bandarbeyla,SO,2020-06-16 17:37:01,9.49,50.81,57,1006,85.19,77,12.36
Dinguiraye,GN,2020-06-16 17:37:01,11.3,-10.72,51,1010,90.54,90,2.01
Fermo,IT,2020-06-16 17:37:01,43.16,13.72,93,1013,70.0,47,1.55
Sawākin,SD,2020-06-16 17:37:01,19.11,37.33,38,1005,89.56,19,3.27
Mníšek pod Brdy,CZ,2020-06-16 17:37:02,49.87,14.26,46,1012,73.4,95,2.6
Yagodnoye,RU,2020-06-16 17:37:02,62.55,149.67,54,1009,59.05,73,1.62
Marzuq,YE,2020-06-16 17:37:02,14.4,46.47,26,1005,89.87,100,1.39
Auerbach,DE,2020-06-16 17:37:02,50.52,12.4,56,1010,72.0,93,4.92
Kathu,TH,2020-06-16 17:37:02,7.92,98.33,94,1011,78.8,20,1.0
Tarpon Springs,US,2020-06-16 17:37:02,28.15,-82.76,69,1016,87.01,0,0.89
Tura,IN,2020-06-16 17:37:03,25.52,90.22,95,1000,75.31,100,2.83
Álamos,MX,2020-06-16 17:37:03,27.02,-108.93,26,1011,96.01,0,3.13
North Bend,US,2020-06-16 17:37:03,43.41,-124.22,82,1020,59.0,90,4.6
Lüderitz,NA,2020-06-16 17:37:03,-26.65,15.16,15,1018,75.2,0,1.0
Sioux Lookout,CA,2020-06-16 17:37:03,50.1,-91.92,61,1016,78.8,75,2.6
